[
    {
        "city": "صنعاء",
        "waypoints": [
            {"lat": 15.354506, "lon": 44.206351, "name": "Main Station"}
        ]
    },
    {
        "city": "عدن",
        "waypoints": [
            {"lat": 12.790620, "lon": 45.017551, "name": "Main Station"}
        ]
    },
    {
        "city": "الحديدة",
        "waypoints": [
            {"lat": 14.775093, "lon": 43.010836, "name": "Main Station"}
        ]
    },
    {
        "city": "تعز",
        "waypoints": [
            {"lat": 13.577582, "lon": 44.017881, "name": "Main Station"}
        ]
    },
    {
        "city": "المكلا",
        "waypoints": [
            {"lat": 14.545194, "lon": 49.126193, "name": "Main Station"}
        ]
    },
    {
        "city": "إب",
        "waypoints": [
            {"lat": 13.971593, "lon": 44.159961, "name": "Main Station"}
        ]
    },
    {
        "city": "ذمار",
        "waypoints": [
            {"lat": 14.545520, "lon": 44.408594, "name": "Main Station"}
        ]
    },
    {
        "city": "عمران",
        "waypoints": [
            {"lat": 15.662377, "lon": 43.943773, "name": "Main Station"}
        ]
    },
    {
        "city": "صعدة",
        "waypoints": [
            {"lat": 16.939166, "lon": 43.752426, "name": "Main Station"}
        ]
    },
    {
        "city": "مأرب",
        "waypoints": [
            {"lat": 15.431664, "lon": 45.331733, "name": "Main Station"}
        ]
    },
    {
        "city": "جعار",
        "waypoints": [
            {"lat": 13.217312, "lon": 45.307359, "name": "Main Station"}
        ]
    },
    {
        "city": "زنجبار",
        "waypoints": [
            {"lat": 13.132598, "lon": 45.386092, "name": "Main Station"}
        ]
    },
    {
        "city": "الغيضة",
        "waypoints": [
            {"lat": 16.207425, "lon": 52.184458, "name": "Main Station"}
        ]
    },
    {
        "city": "سيئون",
        "waypoints": [
            {"lat": 15.952681, "lon": 48.808917, "name": "Main Station"}
        ]
    },
    {
        "city": "شبام",
        "waypoints": [
            {"lat": 15.919925, "lon": 48.638340, "name": "Main Station"}
        ]
    },
    {
        "city": "المحويت",
        "waypoints": [
            {"lat": 15.468368, "lon": 43.545772, "name": "Main Station"}
        ]
    },
    {
        "city": "الشحر",
        "waypoints": [
            {"lat": 14.766910, "lon": 49.608162, "name": "Main Station"}
        ]
    },
    {
        "city": "البيضاء",
        "waypoints": [
            {"lat": 14.374471, "lon": 45.421490, "name": "Main Station"}
        ]
    },
    {
        "city": "رضوم",
        "waypoints": [
            {"lat": 14.083610, "lon": 47.741005, "name": "Main Station"}
        ]
    },
    {
        "city": "القطن",
        "waypoints": [
            {"lat": 15.847256, "lon": 48.463725, "name": "Main Station"}
        ]
    },
    {
        "city": "بيحان",
        "waypoints": [
            {"lat": 14.797970, "lon": 45.721443, "name": "Main Station"}
        ]
    },
    {
        "city": "الدريهمي",
        "waypoints": [
            {"lat": 14.635476, "lon": 43.040177, "name": "Main Station"}
        ]
    },
    {
        "city": "الضالع",
        "waypoints": [
            {"lat": 13.702874, "lon": 44.731663, "name": "Main Station"}
        ]
    },
    {
        "city": "الخوخة",
        "waypoints": [
            {"lat": 13.810396, "lon": 43.245605, "name": "Main Station"}
        ]
    },
    {
        "city": "باجل",
        "waypoints": [
            {"lat": 15.062118, "lon": 43.285641, "name": "Main Station"}
        ]
    },
    {
        "city": "يافع",
        "waypoints": [
            {"lat": 13.862016, "lon": 45.242058, "name": "Main Station"}
        ]
    },
    {
        "city": "التحيتا",
        "waypoints": [
            {"lat": 14.184343, "lon": 43.230414, "name": "Main Station"}
        ]
    },
    {
        "city": "البريقة",
        "waypoints": [
            {"lat": 12.806236, "lon": 44.718806, "name": "Main Station"}
        ]
    },
    {
        "city": "عزان",
        "waypoints": [
            {"lat": 14.325407, "lon": 47.446522, "name": "Main Station"}
        ]
    },
    {
        "city": "ميدي",
        "waypoints": [
            {"lat": 16.314584, "lon": 42.809573, "name": "Main Station"}
        ]
    },
    {
        "city": "دمت",
        "waypoints": [
            {"lat": 14.086893, "lon": 44.671077, "name": "Main Station"}
        ]
    },
    {
        "city": "الحوطة",
        "waypoints": [
            {"lat": 15.905814, "lon": 48.670863, "name": "Main Station"}
        ]
    },
    {
        "city": "تريم",
        "waypoints": [
            {"lat": 16.056851, "lon": 49.006646, "name": "Main Station"}
        ]
    },
    {
        "city": "عتق",
        "waypoints": [
            {"lat": 14.528283, "lon": 46.855760, "name": "Main Station"}
        ]
    },
    {
        "city": "المنصورة",
        "waypoints": [
            {"lat": 13.220718, "lon": 44.062132, "name": "Main Station"}
        ]
    },
    {
        "city": "باقم",
        "waypoints": [
            {"lat": 17.445204, "lon": 43.458846, "name": "Main Station"}
        ]
    },
    {
        "city": " الجبين ريمة",
        "waypoints": [
            {"lat": 14.677741, "lon": 43.579960, "name": "Main Station"}
        ]
    },
    {
        "city": "صرواح",
        "waypoints": [
            {"lat": 15.450222, "lon": 45.020515, "name": "Main Station"}
        ]
    },
    {
        "city": "دوعن",
        "waypoints": [
            {"lat": 15.507598, "lon": 48.331440, "name": "Main Station"}
        ]
    },
    {
        "city": "المخا",
        "waypoints": [
            {"lat": 13.320257, "lon": 43.259678, "name": "Main Station"}
        ]
    },
    {
        "city": "قعطبة",
        "waypoints": [
            {"lat": 13.853247, "lon": 44.702910, "name": "Main Station"}
        ]
    },
    {
        "city": "مودية",
        "waypoints": [
            {"lat": 13.932610, "lon": 46.080298, "name": "Main Station"}
        ]
    },
    {
        "city": "خور مكسر",
        "waypoints": [
            {"lat": 12.810157, "lon": 45.033206, "name": "Main Station"}
        ]
    },
    {
        "city": "كريتر",
        "waypoints": [
            {"lat": 12.780910, "lon": 45.039724, "name": "Main Station"}
        ]
    },
    {
        "city": "الشيخ عثمان",
        "waypoints": [
            {"lat": 12.884008, "lon": 45.025758, "name": "Main Station"}
        ]
    },{
        "city": "وادي العين",
        "waypoints": [
            {"lat": 15.494094, "lon": 48.420756, "name": "Main Station"}
        ]
    },{
        "city": "شحن",
        "waypoints": [
            {"lat": 17.778447, "lon": 52.490466, "name": "Main Station"}
        ]
    },
    {
        "city": "العبر",
        "waypoints": [
            {"lat": 16.155225, "lon": 47.167248, "name": "Main Station"}
        ]
    }
]